{
  "type": "FeatureCollection",
  "features": [
    {
      "type": "Feature",
      "properties": {
        "marker-color": "#db0a0a",
        "marker-size": "medium",
        "marker-symbol": "",
        "traveler": "Maryam",
        "place": "The Black Hills National Forest",
        "month": "August"
      },
      "geometry": {
        "type": "Point",
        "coordinates": [
          -103.73428344726561,
          43.983921991727605
        ]
      }
    },
    {
      "type": "Feature",
      "properties": {
        "marker-color": "#d71d1d",
        "marker-size": "medium",
        "marker-symbol": "",
        "traveler": "Maryam",
        "place": "Aspen",
        "month": "January"
      },
      "geometry": {
        "type": "Point",
        "coordinates": [
          -106.82899475097655,
          39.17651787861678
        ]
      }
    },
    {
      "type": "Feature",
      "properties": {
        "marker-color": "#e41b1b",
        "marker-size": "medium",
        "marker-symbol": "",
        "traveler": "Maryam",
        "place": "Glacier National Park",
        "month": "May"
      },
      "geometry": {
        "type": "Point",
        "coordinates": [
          -113.79913330078124,
          48.669198799260045
        ]
      }
    },
    {
      "type": "Feature",
      "properties": {
        "marker-color": "#e81717",
        "marker-size": "medium",
        "marker-symbol": "",
        "traveler": "Maryam",
        "place": "Crater Lake",
        "month": "May"
      },
      "geometry": {
        "type": "Point",
        "coordinates": [
          -122.10960388183592,
          42.9524020856897
        ]
      }
    },
    {
      "type": "Feature",
      "properties": {
        "marker-color": "#d11f1f",
        "marker-size": "medium",
        "marker-symbol": "",
        "traveler": "Maryam",
        "place": "Tampa Bay",
        "Month": "September"
      },
      "geometry": {
        "type": "Point",
        "coordinates": [
          -82.45771408081055,
          27.948615780103793
        ]
      }
    }
  ]
}